{"version": 0.6, "generator": "Overpass API 0.7.62.5 1bd436f1", "osm3s": {"timestamp_osm_base": "2025-04-07T03:24:45Z", "copyright": "The data included in this document is from www.openstreetmap.org. The data is made available under ODbL."}, "elements": [{"type": "node", "id": 5104097309, "lat": 40.7612852, "lon": -73.8671238, "tags": {"bench": "yes", "bus": "yes", "highway": "bus_stop", "name": "31st Avenue & 102nd Street", "network": "NYC Transit", "network:wikidata": "Q1325591", "public_transport": "platform", "route_ref": "Q49", "shelter": "yes"}}, {"type": "node", "id": 5104098956, "lat": 40.761522, "lon": -73.8674604, "tags": {"bench": "no", "bus": "yes", "highway": "bus_stop", "name": "Astoria Blvd & 102 St", "network": "NYC Transit", "network:wikidata": "Q1325591", "operator": "MTA", "public_transport": "platform", "route_ref": "Q19, Q49", "shelter": "no"}}, {"type": "node", "id": 5104224627, "lat": 40.7613274, "lon": -73.8673369, "tags": {"bench": "no", "bus": "yes", "highway": "bus_stop", "name": "102nd Street & Astoria Boulevard", "network": "NYC Transit", "network:wikidata": "Q1325591", "public_transport": "platform", "route_ref": "Q23", "shelter": "no"}}, {"type": "node", "id": 5115074785, "lat": 40.756965, "lon": -73.8709748, "tags": {"bench": "no", "bus": "yes", "highway": "bus_stop", "name": "Northern Boulevard & 97th Street", "network": "NYC Transit", "network:wikidata": "Q1325591", "public_transport": "platform", "route_ref": "Q66", "shelter": "no"}}, {"type": "node", "id": 5115093382, "lat": 40.7568558, "lon": -73.8740956, "tags": {"bench": "yes", "bus": "yes", "highway": "bus_stop", "name": "Northern Boulevard & Junction Boulevard", "network": "NYC Transit", "network:wikidata": "Q1325591", "public_transport": "platform", "route_ref": "Q66", "shelter": "yes"}}, {"type": "node", "id": 5115094044, "lat": 40.7573981, "lon": -73.8688733, "tags": {"bench": "no", "bus": "yes", "highway": "bus_stop", "name": "Northern Boulevard & 100th Street", "network": "NYC Transit", "network:wikidata": "Q1325591", "public_transport": "platform", "route_ref": "Q66", "shelter": "no"}}, {"type": "node", "id": 5115094481, "lat": 40.7565552, "lon": -73.8748104, "tags": {"bench": "yes", "bus": "yes", "highway": "bus_stop", "name": "Northern Boulevard & 93rd Street", "network": "NYC Transit", "network:wikidata": "Q1325591", "public_transport": "platform", "route_ref": "Q66", "shelter": "yes"}}, {"type": "node", "id": 5115094508, "lat": 40.7572054, "lon": -73.870795, "tags": {"bench": "no", "bus": "yes", "highway": "bus_stop", "name": "Northern Boulevard & 98th Street", "network": "NYC Transit", "network:wikidata": "Q1325591", "public_transport": "platform", "route_ref": "Q66", "shelter": "no"}}, {"type": "node", "id": 5115096876, "lat": 40.7571587, "lon": -73.8691182, "tags": {"bench": "no", "bus": "yes", "highway": "bus_stop", "name": "Northern Boulevard & 99th Street", "network": "NYC Transit", "network:wikidata": "Q1325591", "public_transport": "platform", "route_ref": "Q66", "shelter": "no"}}, {"type": "node", "id": 5115097711, "lat": 40.7576131, "lon": -73.8668955, "tags": {"bench": "yes", "bus": "yes", "highway": "bus_stop", "name": "Northern Boulevard & 102nd Street", "network": "NYC Transit", "network:wikidata": "Q1325591", "public_transport": "platform", "route_ref": "Q66", "shelter": "yes"}}, {"type": "node", "id": 5115097807, "lat": 40.7573729, "lon": -73.8670669, "tags": {"bench": "no", "bus": "yes", "highway": "bus_stop", "name": "Northern Boulevard & 101st Street", "network": "NYC Transit", "network:wikidata": "Q1325591", "public_transport": "platform", "shelter": "no"}}, {"type": "node", "id": 5300834107, "lat": 40.7571687, "lon": -73.8726994, "tags": {"bench": "no", "bus": "yes", "highway": "bus_stop", "name": "Junction Boulevard & Northern Boulevard", "public_transport": "platform", "route_ref": "Q72", "shelter": "no"}}, {"type": "node", "id": 5452641188, "lat": 40.7489368, "lon": -73.8693714, "tags": {"bus": "yes", "highway": "bus_stop", "name": "Junction Boulevard & Roosevelt Avenue", "network": "NYC Transit", "network:wikidata": "Q1325591", "public_transport": "platform"}}, {"type": "node", "id": 5455257143, "lat": 40.7571498, "lon": -73.8737198, "tags": {"bench": "no", "highway": "bus_stop", "name": "Junction Boulevard & Northern Boulevard", "public_transport": "platform", "route_ref": "Q72", "shelter": "no"}}, {"type": "node", "id": 5658781037, "lat": 40.7549322, "lon": -73.8651395, "tags": {"bench": "no", "bus": "yes", "highway": "bus_stop", "name": "103rd Street & 35th Avenue", "network": "NYC Transit", "network:wikidata": "Q1325591", "public_transport": "platform", "route_ref": "Q23", "shelter": "no"}}, {"type": "node", "id": 5658782684, "lat": 40.7574373, "lon": -73.8655726, "tags": {"bench": "no", "bus": "yes", "highway": "bus_stop", "name": "103rd Street & Northern Boulevard", "public_transport": "platform", "route_ref": "Q23", "shelter": "no"}}, {"type": "node", "id": 5658787016, "lat": 40.7595015, "lon": -73.8664001, "tags": {"bench": "no", "bus": "yes", "highway": "bus_stop", "name": "32nd Avenue & 103rd Street", "public_transport": "platform", "route_ref": "Q23", "shelter": "no"}}, {"type": "node", "id": 5658787037, "lat": 40.7593655, "lon": -73.8676785, "tags": {"bench": "no", "bus": "yes", "highway": "bus_stop", "name": "32nd Avenue & 101st Street", "network": "NYC Transit", "network:wikidata": "Q1325591", "public_transport": "platform", "route_ref": "Q23", "shelter": "no"}}, {"type": "node", "id": 5658787730, "lat": 40.7590824, "lon": -73.8669198, "tags": {"bench": "no", "bus": "yes", "highway": "bus_stop", "name": "102nd Street & 32nd Avenue", "public_transport": "platform", "route_ref": "Q23", "shelter": "no"}}, {"type": "node", "id": 5711128607, "lat": 40.7567346, "lon": -73.8732719, "tags": {"bench": "no", "bus": "yes", "highway": "bus_stop", "name": "Northern Boulevard & Junction Boulevard", "network": "NYC Transit", "public_transport": "platform", "route_ref": "Q66", "shelter": "no"}}, {"type": "node", "id": 5758407215, "lat": 40.7543604, "lon": -73.8660662, "tags": {"bench": "no", "bus": "yes", "highway": "bus_stop", "name": "102nd Street & 35th Avenue", "network": "NYC Transit", "network:wikidata": "Q1325591", "public_transport": "platform", "route_ref": "Q23", "shelter": "no"}}, {"type": "node", "id": 5758410011, "lat": 40.753109, "lon": -73.8655485, "tags": {"bench": "no", "bin": "no", "bus": "yes", "check_date:shelter": "2022-08-02", "highway": "bus_stop", "name": "102nd Street & 37th Avenue", "network": "NYC Transit", "network:wikidata": "Q1325591", "public_transport": "platform", "route_ref": "Q23", "shelter": "no", "tactile_paving": "no"}}, {"type": "node", "id": 5758414084, "lat": 40.755371, "lon": -73.8662552, "tags": {"bench": "no", "bus": "yes", "highway": "bus_stop", "name": "102nd Street & 34th Avenue", "public_transport": "platform", "route_ref": "Q23", "shelter": "no"}}, {"type": "node", "id": 5758417260, "lat": 40.7572296, "lon": -73.8665906, "tags": {"bench": "no", "bus": "yes", "highway": "bus_stop", "name": "102nd Street & Northern Boulevard", "public_transport": "platform", "route_ref": "Q23", "shelter": "no"}}, {"type": "node", "id": 5760178124, "lat": 40.7609296, "lon": -73.8680363, "tags": {"bench": "no", "bus": "yes", "highway": "bus_stop", "name": "101st Street & 31st Avenue", "public_transport": "platform", "route_ref": "Q23", "shelter": "no"}}, {"type": "node", "id": 5760231711, "lat": 40.7473898, "lon": -73.8684225, "tags": {"bench": "no", "bus": "yes", "highway": "bus_stop", "name": "Junction Boulevard & 41st Avenue", "public_transport": "platform", "route_ref": "Q72", "shelter": "no"}}, {"type": "node", "id": 5760232080, "lat": 40.7472289, "lon": -73.8685727, "tags": {"bench": "no", "bus": "yes", "highway": "bus_stop", "name": "Junction Boulevard & 41st Avenue", "public_transport": "platform", "route_ref": "Q72", "shelter": "no"}}, {"type": "node", "id": 5921061011, "lat": 40.7518608, "lon": -73.870897, "tags": {"bench": "no", "bus": "yes", "highway": "bus_stop", "name": "Junction Boulevard & 37th Avenue", "passenger_information_display": "no", "public_transport": "platform", "route_ref": "Q72", "shelter": "no"}}, {"type": "node", "id": 5921061012, "lat": 40.7512511, "lon": -73.870777, "tags": {"bench": "yes", "bus": "yes", "highway": "bus_stop", "name": "Junction Boulevard & 37th Avenue", "passenger_information_display": "no", "public_transport": "platform", "route_ref": "Q72", "shelter": "yes"}}, {"type": "node", "id": 8501487559, "lat": 40.7536474, "lon": -73.8718437, "tags": {"bench": "yes", "bus": "yes", "highway": "bus_stop", "name": "Junction Boulevard & 35th Avenue", "public_transport": "platform", "route_ref": "Q72", "shelter": "yes"}}, {"type": "node", "id": 8643608382, "lat": 40.7547039, "lon": -73.8726194, "tags": {"bench": "no", "bus": "yes", "highway": "bus_stop", "name": "Junction Boulevard & 34th Avenue", "public_transport": "platform", "route_ref": "Q72", "shelter": "no"}}]}